[{"address":"Address 0","city":"Amsterdam","information":"Some information about POI 0","longitude":8.9876003265380859,"country":"The Netherlands","category":{"name":"Category 0"},"latitude":10.12339973449707,"identifier":"1975DB51-5A45-4FD6-AC54-46CA6042C710","name":"POI 0"},{"address":"Address 1","city":"Amsterdam","information":"Some information about POI 1","longitude":8.9876003265380859,"country":"The Netherlands","category":{"name":"Category 1"},"latitude":10.12339973449707,"identifier":"140BB588-9D54-4FB2-8CF9-3BBBADDF125D","name":"POI 1"},{"address":"Address 2","city":"Amsterdam","information":"Some information about POI 2","longitude":8.9876003265380859,"country":"The Netherlands","category":{"name":"Category 2"},"latitude":10.12339973449707,"identifier":"FC86D1DA-18B1-488C-9B4B-09516FCBBCFE","name":"POI 2"},{"address":"Address 3","city":"Amsterdam","information":"Some information about POI 3","longitude":8.9876003265380859,"country":"The Netherlands","category":{"name":"Category 3"},"latitude":10.12339973449707,"identifier":"8BA14E3D-1D0F-4673-8A6E-43A7026584C9","name":"POI 3"},{"address":"Address 4","city":"Amsterdam","information":"Some information about POI 4","longitude":8.9876003265380859,"country":"The Netherlands","category":{"name":"Category 4"},"latitude":10.12339973449707,"identifier":"2DABA98A-26C3-4163-9746-00F0CE41F03C","name":"POI 4"},{"address":"Address 5","city":"Amsterdam","information":"Some information about POI 5","longitude":8.9876003265380859,"country":"The Netherlands","category":{"name":"Category 0"},"latitude":10.12339973449707,"identifier":"A25F541C-A500-46EC-B079-3BE7117045C1","name":"POI 5"},{"address":"Address 6","city":"Amsterdam","information":"Some information about POI 6","longitude":8.9876003265380859,"country":"The Netherlands","category":{"name":"Category 1"},"latitude":10.12339973449707,"identifier":"6FDC28B2-4F21-46D0-8251-6F8C42BCA608","name":"POI 6"},{"address":"Address 7","city":"Amsterdam","information":"Some information about POI 7","longitude":8.9876003265380859,"country":"The Netherlands","category":{"name":"Category 2"},"latitude":10.12339973449707,"identifier":"AA52A50C-C0B3-485A-8B6E-492D593F162D","name":"POI 7"},{"address":"Address 8","city":"Amsterdam","information":"Some information about POI 8","longitude":8.9876003265380859,"country":"The Netherlands","category":{"name":"Category 3"},"latitude":10.12339973449707,"identifier":"D21E3149-4586-42EB-ADE8-71389A50B01C","name":"POI 8"},{"address":"Address 9","city":"Amsterdam","information":"Some information about POI 9","longitude":8.9876003265380859,"country":"The Netherlands","category":{"name":"Category 4"},"latitude":10.12339973449707,"identifier":"04ACC25F-E917-4C02-91E7-4353626DF9B5","name":"POI 9"},{"address":"Address 10","city":"Amsterdam","information":"Some information about POI 10","longitude":8.9876003265380859,"country":"The Netherlands","category":{"name":"Category 0"},"latitude":10.12339973449707,"identifier":"A303A78A-C818-48B1-98F8-8688150AA8C9","name":"POI 10"},{"address":"Address 11","city":"Amsterdam","information":"Some information about POI 11","longitude":8.9876003265380859,"country":"The Netherlands","category":{"name":"Category 1"},"latitude":10.12339973449707,"identifier":"26C136CC-B174-4ACC-8541-AF393F186027","name":"POI 11"},{"address":"Address 12","city":"Amsterdam","information":"Some information about POI 12","longitude":8.9876003265380859,"country":"The Netherlands","category":{"name":"Category 2"},"latitude":10.12339973449707,"identifier":"3C1A4DE0-3080-4764-A29E-A163EC5225E4","name":"POI 12"},{"address":"Address 13","city":"Amsterdam","information":"Some information about POI 13","longitude":8.9876003265380859,"country":"The Netherlands","category":{"name":"Category 3"},"latitude":10.12339973449707,"identifier":"3A0D14E8-131D-45A4-BECB-F19D3D3ABC8F","name":"POI 13"},{"address":"Address 14","city":"Amsterdam","information":"Some information about POI 14","longitude":8.9876003265380859,"country":"The Netherlands","category":{"name":"Category 4"},"latitude":10.12339973449707,"identifier":"EFF72830-12C3-4094-9EF1-DE42EB5C504F","name":"POI 14"},{"address":"Address 15","city":"Amsterdam","information":"Some information about POI 15","longitude":8.9876003265380859,"country":"The Netherlands","category":{"name":"Category 0"},"latitude":10.12339973449707,"identifier":"744AD915-4A20-4DB5-AB24-A8324E621888","name":"POI 15"},{"address":"Address 16","city":"Amsterdam","information":"Some information about POI 16","longitude":8.9876003265380859,"country":"The Netherlands","category":{"name":"Category 1"},"latitude":10.12339973449707,"identifier":"7B6058E6-F352-4AD5-BA55-0775394DA1A4","name":"POI 16"},{"address":"Address 17","city":"Amsterdam","information":"Some information about POI 17","longitude":8.9876003265380859,"country":"The Netherlands","category":{"name":"Category 2"},"latitude":10.12339973449707,"identifier":"6EBBAFBF-BFF8-48B8-96B3-0684AFC4600C","name":"POI 17"},{"address":"Address 18","city":"Amsterdam","information":"Some information about POI 18","longitude":8.9876003265380859,"country":"The Netherlands","category":{"name":"Category 3"},"latitude":10.12339973449707,"identifier":"F0FA1AF0-CBC5-40E1-906C-778D38BF504F","name":"POI 18"},{"address":"Address 19","city":"Amsterdam","information":"Some information about POI 19","longitude":8.9876003265380859,"country":"The Netherlands","category":{"name":"Category 4"},"latitude":10.12339973449707,"identifier":"B1E36B6E-4A28-4292-AF2E-0765356F3760","name":"POI 19"},{"address":"Address 20","city":"Amsterdam","information":"Some information about POI 20","longitude":8.9876003265380859,"country":"The Netherlands","category":{"name":"Category 0"},"latitude":10.12339973449707,"identifier":"594456C3-BB1A-42CE-8E45-F35689667288","name":"POI 20"},{"address":"Address 21","city":"Amsterdam","information":"Some information about POI 21","longitude":8.9876003265380859,"country":"The Netherlands","category":{"name":"Category 1"},"latitude":10.12339973449707,"identifier":"BEAB1179-F762-4784-97CF-0424CB34511F","name":"POI 21"},{"address":"Address 22","city":"Amsterdam","information":"Some information about POI 22","longitude":8.9876003265380859,"country":"The Netherlands","category":{"name":"Category 2"},"latitude":10.12339973449707,"identifier":"5BAF27DE-6645-4884-B532-8D2E4DE799D1","name":"POI 22"},{"address":"Address 23","city":"Amsterdam","information":"Some information about POI 23","longitude":8.9876003265380859,"country":"The Netherlands","category":{"name":"Category 3"},"latitude":10.12339973449707,"identifier":"A972D099-A57D-44AF-9E07-44676E09233F","name":"POI 23"},{"address":"Address 24","city":"Amsterdam","information":"Some information about POI 24","longitude":8.9876003265380859,"country":"The Netherlands","category":{"name":"Category 4"},"latitude":10.12339973449707,"identifier":"7FE4095E-D0FB-4DC3-A821-61FC76A81F99","name":"POI 24"},{"address":"Address 25","city":"Amsterdam","information":"Some information about POI 25","longitude":8.9876003265380859,"country":"The Netherlands","category":{"name":"Category 0"},"latitude":10.12339973449707,"identifier":"6F6EDE27-BEB0-43BD-A9C4-310544AED15B","name":"POI 25"},{"address":"Address 26","city":"Amsterdam","information":"Some information about POI 26","longitude":8.9876003265380859,"country":"The Netherlands","category":{"name":"Category 1"},"latitude":10.12339973449707,"identifier":"F8935184-490B-45CA-A713-F506F0544D66","name":"POI 26"},{"address":"Address 27","city":"Amsterdam","information":"Some information about POI 27","longitude":8.9876003265380859,"country":"The Netherlands","category":{"name":"Category 2"},"latitude":10.12339973449707,"identifier":"73082769-41F5-42BC-8DFA-D24798C58602","name":"POI 27"},{"address":"Address 28","city":"Amsterdam","information":"Some information about POI 28","longitude":8.9876003265380859,"country":"The Netherlands","category":{"name":"Category 3"},"latitude":10.12339973449707,"identifier":"227DC059-ABBA-4EB4-9C4A-7EDF16AA16BE","name":"POI 28"},{"address":"Address 29","city":"Amsterdam","information":"Some information about POI 29","longitude":8.9876003265380859,"country":"The Netherlands","category":{"name":"Category 4"},"latitude":10.12339973449707,"identifier":"2A223641-E5A2-4184-B945-E743F8C61C31","name":"POI 29"},{"address":"Address 30","city":"Amsterdam","information":"Some information about POI 30","longitude":8.9876003265380859,"country":"The Netherlands","category":{"name":"Category 0"},"latitude":10.12339973449707,"identifier":"555552F2-5F0A-4D94-9E49-E7E3BF0968DC","name":"POI 30"},{"address":"Address 31","city":"Amsterdam","information":"Some information about POI 31","longitude":8.9876003265380859,"country":"The Netherlands","category":{"name":"Category 1"},"latitude":10.12339973449707,"identifier":"65E8661A-3585-44BE-839D-6D46606D4E28","name":"POI 31"},{"address":"Address 32","city":"Amsterdam","information":"Some information about POI 32","longitude":8.9876003265380859,"country":"The Netherlands","category":{"name":"Category 2"},"latitude":10.12339973449707,"identifier":"EDFDA272-8453-445F-8383-0555D6945A6D","name":"POI 32"},{"address":"Address 33","city":"Amsterdam","information":"Some information about POI 33","longitude":8.9876003265380859,"country":"The Netherlands","category":{"name":"Category 3"},"latitude":10.12339973449707,"identifier":"D9E48F05-C392-48B9-A622-16FCE8BCA607","name":"POI 33"},{"address":"Address 34","city":"Amsterdam","information":"Some information about POI 34","longitude":8.9876003265380859,"country":"The Netherlands","category":{"name":"Category 4"},"latitude":10.12339973449707,"identifier":"A90A3AB5-A6F5-45B5-9D61-D61C31FC05B1","name":"POI 34"},{"address":"Address 35","city":"Amsterdam","information":"Some information about POI 35","longitude":8.9876003265380859,"country":"The Netherlands","category":{"name":"Category 0"},"latitude":10.12339973449707,"identifier":"5BD29C45-0C18-4FD8-B264-7B37AEDA8B01","name":"POI 35"},{"address":"Address 36","city":"Amsterdam","information":"Some information about POI 36","longitude":8.9876003265380859,"country":"The Netherlands","category":{"name":"Category 1"},"latitude":10.12339973449707,"identifier":"688439A8-5666-4589-AD54-E7063E8DEEF2","name":"POI 36"},{"address":"Address 37","city":"Amsterdam","information":"Some information about POI 37","longitude":8.9876003265380859,"country":"The Netherlands","category":{"name":"Category 2"},"latitude":10.12339973449707,"identifier":"980D9215-233C-4E79-BC9A-F9A962AF4F00","name":"POI 37"},{"address":"Address 38","city":"Amsterdam","information":"Some information about POI 38","longitude":8.9876003265380859,"country":"The Netherlands","category":{"name":"Category 3"},"latitude":10.12339973449707,"identifier":"B3206765-BE07-49D7-8BD2-90CDB701985F","name":"POI 38"},{"address":"Address 39","city":"Amsterdam","information":"Some information about POI 39","longitude":8.9876003265380859,"country":"The Netherlands","category":{"name":"Category 4"},"latitude":10.12339973449707,"identifier":"FDFB6890-1430-4196-A24B-B56A3553CD86","name":"POI 39"},{"address":"Address 40","city":"Amsterdam","information":"Some information about POI 40","longitude":8.9876003265380859,"country":"The Netherlands","category":{"name":"Category 0"},"latitude":10.12339973449707,"identifier":"CADC809D-B6F4-42A0-9857-D4207899C291","name":"POI 40"},{"address":"Address 41","city":"Amsterdam","information":"Some information about POI 41","longitude":8.9876003265380859,"country":"The Netherlands","category":{"name":"Category 1"},"latitude":10.12339973449707,"identifier":"6825E35D-7D1F-499E-AC7D-74530108B9EC","name":"POI 41"},{"address":"Address 42","city":"Amsterdam","information":"Some information about POI 42","longitude":8.9876003265380859,"country":"The Netherlands","category":{"name":"Category 2"},"latitude":10.12339973449707,"identifier":"E0F46FCD-41F2-4A9A-BE73-B8576358B509","name":"POI 42"},{"address":"Address 43","city":"Amsterdam","information":"Some information about POI 43","longitude":8.9876003265380859,"country":"The Netherlands","category":{"name":"Category 3"},"latitude":10.12339973449707,"identifier":"EDFAF3A2-F7F2-49E6-A3BD-9114A8F1053B","name":"POI 43"},{"address":"Address 44","city":"Amsterdam","information":"Some information about POI 44","longitude":8.9876003265380859,"country":"The Netherlands","category":{"name":"Category 4"},"latitude":10.12339973449707,"identifier":"853B7A85-8A99-4E3B-AFA0-50B98B10EACD","name":"POI 44"},{"address":"Address 45","city":"Amsterdam","information":"Some information about POI 45","longitude":8.9876003265380859,"country":"The Netherlands","category":{"name":"Category 0"},"latitude":10.12339973449707,"identifier":"71016D8E-9AB6-454F-89A0-66A8526F993B","name":"POI 45"},{"address":"Address 46","city":"Amsterdam","information":"Some information about POI 46","longitude":8.9876003265380859,"country":"The Netherlands","category":{"name":"Category 1"},"latitude":10.12339973449707,"identifier":"304AB5BD-D3A2-4D97-90A7-7361560F2EC8","name":"POI 46"},{"address":"Address 47","city":"Amsterdam","information":"Some information about POI 47","longitude":8.9876003265380859,"country":"The Netherlands","category":{"name":"Category 2"},"latitude":10.12339973449707,"identifier":"F1CD2099-1527-46E5-A163-24DF5FA559D1","name":"POI 47"},{"address":"Address 48","city":"Amsterdam","information":"Some information about POI 48","longitude":8.9876003265380859,"country":"The Netherlands","category":{"name":"Category 3"},"latitude":10.12339973449707,"identifier":"CE0C9C6D-DF19-4742-91D1-42A5AB49DAD4","name":"POI 48"},{"address":"Address 49","city":"Amsterdam","information":"Some information about POI 49","longitude":8.9876003265380859,"country":"The Netherlands","category":{"name":"Category 4"},"latitude":10.12339973449707,"identifier":"A9C1FBFB-61B5-4BC5-9428-FCBC32F0A5A0","name":"POI 49"},{"address":"Address 50","city":"Amsterdam","information":"Some information about POI 50","longitude":8.9876003265380859,"country":"The Netherlands","category":{"name":"Category 0"},"latitude":10.12339973449707,"identifier":"74DBA4DE-890B-410A-BF45-9AD9F146CFC3","name":"POI 50"},{"address":"Address 51","city":"Amsterdam","information":"Some information about POI 51","longitude":8.9876003265380859,"country":"The Netherlands","category":{"name":"Category 1"},"latitude":10.12339973449707,"identifier":"EC9AD1AF-97A2-4067-ACA4-51AC0FFAE57E","name":"POI 51"},{"address":"Address 52","city":"Amsterdam","information":"Some information about POI 52","longitude":8.9876003265380859,"country":"The Netherlands","category":{"name":"Category 2"},"latitude":10.12339973449707,"identifier":"C903064F-241F-42F2-AA47-6579A8F15F51","name":"POI 52"},{"address":"Address 53","city":"Amsterdam","information":"Some information about POI 53","longitude":8.9876003265380859,"country":"The Netherlands","category":{"name":"Category 3"},"latitude":10.12339973449707,"identifier":"A8F6B1AF-BB27-4221-92C2-C90210704F3F","name":"POI 53"},{"address":"Address 54","city":"Amsterdam","information":"Some information about POI 54","longitude":8.9876003265380859,"country":"The Netherlands","category":{"name":"Category 4"},"latitude":10.12339973449707,"identifier":"ABA64963-AAFD-4E26-A32B-B4E4CBF23DCF","name":"POI 54"},{"address":"Address 55","city":"Amsterdam","information":"Some information about POI 55","longitude":8.9876003265380859,"country":"The Netherlands","category":{"name":"Category 0"},"latitude":10.12339973449707,"identifier":"646710B0-CB98-49FB-B761-A68B7FAC46C6","name":"POI 55"},{"address":"Address 56","city":"Amsterdam","information":"Some information about POI 56","longitude":8.9876003265380859,"country":"The Netherlands","category":{"name":"Category 1"},"latitude":10.12339973449707,"identifier":"7F4541EE-549D-4611-AE3D-4166B72B79C9","name":"POI 56"},{"address":"Address 57","city":"Amsterdam","information":"Some information about POI 57","longitude":8.9876003265380859,"country":"The Netherlands","category":{"name":"Category 2"},"latitude":10.12339973449707,"identifier":"2B395D56-E4AB-4852-BF0C-53E6EB086349","name":"POI 57"},{"address":"Address 58","city":"Amsterdam","information":"Some information about POI 58","longitude":8.9876003265380859,"country":"The Netherlands","category":{"name":"Category 3"},"latitude":10.12339973449707,"identifier":"FE778804-7971-4C0C-B41E-2A8DBB890508","name":"POI 58"},{"address":"Address 59","city":"Amsterdam","information":"Some information about POI 59","longitude":8.9876003265380859,"country":"The Netherlands","category":{"name":"Category 4"},"latitude":10.12339973449707,"identifier":"8B673B71-C24B-491E-A8DD-1C215E3F9FF0","name":"POI 59"},{"address":"Address 60","city":"Amsterdam","information":"Some information about POI 60","longitude":8.9876003265380859,"country":"The Netherlands","category":{"name":"Category 0"},"latitude":10.12339973449707,"identifier":"29E42D0E-86E1-452D-87B4-EEC6217D8C44","name":"POI 60"},{"address":"Address 61","city":"Amsterdam","information":"Some information about POI 61","longitude":8.9876003265380859,"country":"The Netherlands","category":{"name":"Category 1"},"latitude":10.12339973449707,"identifier":"C8FD8E63-2D50-4A7E-8421-FF94359B2269","name":"POI 61"},{"address":"Address 62","city":"Amsterdam","information":"Some information about POI 62","longitude":8.9876003265380859,"country":"The Netherlands","category":{"name":"Category 2"},"latitude":10.12339973449707,"identifier":"8F900D41-2400-4BC3-967B-B4CA54F09ECB","name":"POI 62"},{"address":"Address 63","city":"Amsterdam","information":"Some information about POI 63","longitude":8.9876003265380859,"country":"The Netherlands","category":{"name":"Category 3"},"latitude":10.12339973449707,"identifier":"D07539D4-3F49-42D7-AD94-601AD96F1E20","name":"POI 63"},{"address":"Address 64","city":"Amsterdam","information":"Some information about POI 64","longitude":8.9876003265380859,"country":"The Netherlands","category":{"name":"Category 4"},"latitude":10.12339973449707,"identifier":"A35524D9-0EEC-4E11-93D7-1C894DC1A152","name":"POI 64"},{"address":"Address 65","city":"Amsterdam","information":"Some information about POI 65","longitude":8.9876003265380859,"country":"The Netherlands","category":{"name":"Category 0"},"latitude":10.12339973449707,"identifier":"52D16209-DDC5-4D97-A771-BDE9397EE1B7","name":"POI 65"},{"address":"Address 66","city":"Amsterdam","information":"Some information about POI 66","longitude":8.9876003265380859,"country":"The Netherlands","category":{"name":"Category 1"},"latitude":10.12339973449707,"identifier":"190B8232-3940-4177-B72F-5CF9EF037372","name":"POI 66"},{"address":"Address 67","city":"Amsterdam","information":"Some information about POI 67","longitude":8.9876003265380859,"country":"The Netherlands","category":{"name":"Category 2"},"latitude":10.12339973449707,"identifier":"FDF11E26-6D04-40F1-B64E-9F11ACE699E3","name":"POI 67"},{"address":"Address 68","city":"Amsterdam","information":"Some information about POI 68","longitude":8.9876003265380859,"country":"The Netherlands","category":{"name":"Category 3"},"latitude":10.12339973449707,"identifier":"4B5E047A-3B78-4FF7-8E33-9317E106DABA","name":"POI 68"},{"address":"Address 69","city":"Amsterdam","information":"Some information about POI 69","longitude":8.9876003265380859,"country":"The Netherlands","category":{"name":"Category 4"},"latitude":10.12339973449707,"identifier":"C27E0B3C-5BB2-4C3A-A051-09E1D186A585","name":"POI 69"},{"address":"Address 70","city":"Amsterdam","information":"Some information about POI 70","longitude":8.9876003265380859,"country":"The Netherlands","category":{"name":"Category 0"},"latitude":10.12339973449707,"identifier":"3C715705-D722-4782-A274-E160B1DDF5C2","name":"POI 70"},{"address":"Address 71","city":"Amsterdam","information":"Some information about POI 71","longitude":8.9876003265380859,"country":"The Netherlands","category":{"name":"Category 1"},"latitude":10.12339973449707,"identifier":"1A11B5DF-3E1E-48D1-9878-D11A6307D9CA","name":"POI 71"},{"address":"Address 72","city":"Amsterdam","information":"Some information about POI 72","longitude":8.9876003265380859,"country":"The Netherlands","category":{"name":"Category 2"},"latitude":10.12339973449707,"identifier":"B33367D6-AAEE-47DE-96A2-A510C58FA69F","name":"POI 72"},{"address":"Address 73","city":"Amsterdam","information":"Some information about POI 73","longitude":8.9876003265380859,"country":"The Netherlands","category":{"name":"Category 3"},"latitude":10.12339973449707,"identifier":"2B317B2E-DA5D-4CD6-8132-C79B1EE1FE3F","name":"POI 73"},{"address":"Address 74","city":"Amsterdam","information":"Some information about POI 74","longitude":8.9876003265380859,"country":"The Netherlands","category":{"name":"Category 4"},"latitude":10.12339973449707,"identifier":"280787C0-F5D2-4DDF-A647-5A261EC256AD","name":"POI 74"},{"address":"Address 75","city":"Amsterdam","information":"Some information about POI 75","longitude":8.9876003265380859,"country":"The Netherlands","category":{"name":"Category 0"},"latitude":10.12339973449707,"identifier":"B6E15837-34AF-44B8-ADD2-A916A84D3CD4","name":"POI 75"},{"address":"Address 76","city":"Amsterdam","information":"Some information about POI 76","longitude":8.9876003265380859,"country":"The Netherlands","category":{"name":"Category 1"},"latitude":10.12339973449707,"identifier":"D5E53858-E9D7-4EC2-B8D1-26BF25ABA680","name":"POI 76"},{"address":"Address 77","city":"Amsterdam","information":"Some information about POI 77","longitude":8.9876003265380859,"country":"The Netherlands","category":{"name":"Category 2"},"latitude":10.12339973449707,"identifier":"83C51FF5-FCFE-44A6-A2D4-4B6CB55E9CBF","name":"POI 77"},{"address":"Address 78","city":"Amsterdam","information":"Some information about POI 78","longitude":8.9876003265380859,"country":"The Netherlands","category":{"name":"Category 3"},"latitude":10.12339973449707,"identifier":"BA6D87BA-16C9-45FA-B301-BC5CE294F74D","name":"POI 78"},{"address":"Address 79","city":"Amsterdam","information":"Some information about POI 79","longitude":8.9876003265380859,"country":"The Netherlands","category":{"name":"Category 4"},"latitude":10.12339973449707,"identifier":"6735241A-5721-4ABB-B957-726E920E1835","name":"POI 79"},{"address":"Address 80","city":"Amsterdam","information":"Some information about POI 80","longitude":8.9876003265380859,"country":"The Netherlands","category":{"name":"Category 0"},"latitude":10.12339973449707,"identifier":"BA314F0E-017B-462C-BF22-CF105ED6E948","name":"POI 80"},{"address":"Address 81","city":"Amsterdam","information":"Some information about POI 81","longitude":8.9876003265380859,"country":"The Netherlands","category":{"name":"Category 1"},"latitude":10.12339973449707,"identifier":"4BCE6E01-940E-4436-B297-0BB949774667","name":"POI 81"},{"address":"Address 82","city":"Amsterdam","information":"Some information about POI 82","longitude":8.9876003265380859,"country":"The Netherlands","category":{"name":"Category 2"},"latitude":10.12339973449707,"identifier":"6010773D-ECFA-406E-AB2B-21583533EF2F","name":"POI 82"},{"address":"Address 83","city":"Amsterdam","information":"Some information about POI 83","longitude":8.9876003265380859,"country":"The Netherlands","category":{"name":"Category 3"},"latitude":10.12339973449707,"identifier":"A0A50C29-CAD0-48A7-8743-65F9CD0FBECF","name":"POI 83"},{"address":"Address 84","city":"Amsterdam","information":"Some information about POI 84","longitude":8.9876003265380859,"country":"The Netherlands","category":{"name":"Category 4"},"latitude":10.12339973449707,"identifier":"B3E0A1F2-5E03-46D3-9CC6-7EAC70D9599B","name":"POI 84"},{"address":"Address 85","city":"Amsterdam","information":"Some information about POI 85","longitude":8.9876003265380859,"country":"The Netherlands","category":{"name":"Category 0"},"latitude":10.12339973449707,"identifier":"1F670008-4C19-4040-B013-29F4A99958A5","name":"POI 85"},{"address":"Address 86","city":"Amsterdam","information":"Some information about POI 86","longitude":8.9876003265380859,"country":"The Netherlands","category":{"name":"Category 1"},"latitude":10.12339973449707,"identifier":"D49B11FC-6329-4065-9F20-ACAE057FBD32","name":"POI 86"},{"address":"Address 87","city":"Amsterdam","information":"Some information about POI 87","longitude":8.9876003265380859,"country":"The Netherlands","category":{"name":"Category 2"},"latitude":10.12339973449707,"identifier":"7C8F0C2D-B06B-4C23-8BD7-3EB9C21CBBA3","name":"POI 87"},{"address":"Address 88","city":"Amsterdam","information":"Some information about POI 88","longitude":8.9876003265380859,"country":"The Netherlands","category":{"name":"Category 3"},"latitude":10.12339973449707,"identifier":"08E3DD40-6EEF-4CF7-A7D9-11BE45586F0D","name":"POI 88"},{"address":"Address 89","city":"Amsterdam","information":"Some information about POI 89","longitude":8.9876003265380859,"country":"The Netherlands","category":{"name":"Category 4"},"latitude":10.12339973449707,"identifier":"793AE54D-0BBD-47A1-9A2E-D89D22AEF600","name":"POI 89"},{"address":"Address 90","city":"Amsterdam","information":"Some information about POI 90","longitude":8.9876003265380859,"country":"The Netherlands","category":{"name":"Category 0"},"latitude":10.12339973449707,"identifier":"B1853572-C7B4-4E56-BCD0-222A6995FC3B","name":"POI 90"},{"address":"Address 91","city":"Amsterdam","information":"Some information about POI 91","longitude":8.9876003265380859,"country":"The Netherlands","category":{"name":"Category 1"},"latitude":10.12339973449707,"identifier":"BB3E3401-6756-4ED6-938C-001B98EA9D09","name":"POI 91"},{"address":"Address 92","city":"Amsterdam","information":"Some information about POI 92","longitude":8.9876003265380859,"country":"The Netherlands","category":{"name":"Category 2"},"latitude":10.12339973449707,"identifier":"865DD07E-1935-4CAF-A988-C9A4680C3223","name":"POI 92"},{"address":"Address 93","city":"Amsterdam","information":"Some information about POI 93","longitude":8.9876003265380859,"country":"The Netherlands","category":{"name":"Category 3"},"latitude":10.12339973449707,"identifier":"C31CF50B-211F-4F79-8FB8-50B63DB7B235","name":"POI 93"},{"address":"Address 94","city":"Amsterdam","information":"Some information about POI 94","longitude":8.9876003265380859,"country":"The Netherlands","category":{"name":"Category 4"},"latitude":10.12339973449707,"identifier":"BA13390B-16DD-4926-B3DC-F251A2A86712","name":"POI 94"},{"address":"Address 95","city":"Amsterdam","information":"Some information about POI 95","longitude":8.9876003265380859,"country":"The Netherlands","category":{"name":"Category 0"},"latitude":10.12339973449707,"identifier":"3C99B188-F24C-4A31-8BD4-08C623453D78","name":"POI 95"},{"address":"Address 96","city":"Amsterdam","information":"Some information about POI 96","longitude":8.9876003265380859,"country":"The Netherlands","category":{"name":"Category 1"},"latitude":10.12339973449707,"identifier":"A82E7D0A-B977-44A1-B55C-5767C96D90DB","name":"POI 96"},{"address":"Address 97","city":"Amsterdam","information":"Some information about POI 97","longitude":8.9876003265380859,"country":"The Netherlands","category":{"name":"Category 2"},"latitude":10.12339973449707,"identifier":"76AE5992-A35F-417A-BCF4-7270743886DA","name":"POI 97"},{"address":"Address 98","city":"Amsterdam","information":"Some information about POI 98","longitude":8.9876003265380859,"country":"The Netherlands","category":{"name":"Category 3"},"latitude":10.12339973449707,"identifier":"4480216B-267C-4086-94B2-E5C195D3FB77","name":"POI 98"},{"address":"Address 99","city":"Amsterdam","information":"Some information about POI 99","longitude":8.9876003265380859,"country":"The Netherlands","category":{"name":"Category 4"},"latitude":10.12339973449707,"identifier":"C0AC535C-3A02-45F2-BD8A-4600208790D3","name":"POI 99"},{"address":"Address 100","city":"Amsterdam","information":"Some information about POI 100","longitude":8.9876003265380859,"country":"The Netherlands","category":{"name":"Category 0"},"latitude":10.12339973449707,"identifier":"53D2D81E-0209-4B78-ADFE-9D1C8D00CACC","name":"POI 100"},{"address":"Address 101","city":"Amsterdam","information":"Some information about POI 101","longitude":8.9876003265380859,"country":"The Netherlands","category":{"name":"Category 1"},"latitude":10.12339973449707,"identifier":"0A954D51-391E-4D26-AD6D-C591B89F1E7B","name":"POI 101"},{"address":"Address 102","city":"Amsterdam","information":"Some information about POI 102","longitude":8.9876003265380859,"country":"The Netherlands","category":{"name":"Category 2"},"latitude":10.12339973449707,"identifier":"64073FEC-22A5-46AE-9E83-5FFE64F76657","name":"POI 102"},{"address":"Address 103","city":"Amsterdam","information":"Some information about POI 103","longitude":8.9876003265380859,"country":"The Netherlands","category":{"name":"Category 3"},"latitude":10.12339973449707,"identifier":"EEF6CDA3-FEAD-4435-BF8D-EE80086F0989","name":"POI 103"},{"address":"Address 104","city":"Amsterdam","information":"Some information about POI 104","longitude":8.9876003265380859,"country":"The Netherlands","category":{"name":"Category 4"},"latitude":10.12339973449707,"identifier":"9BB4DCCA-A331-4F52-87E0-440AFD37FEBB","name":"POI 104"},{"address":"Address 105","city":"Amsterdam","information":"Some information about POI 105","longitude":8.9876003265380859,"country":"The Netherlands","category":{"name":"Category 0"},"latitude":10.12339973449707,"identifier":"9CC1CDCF-4124-49FD-8F42-55DBD4012B3F","name":"POI 105"},{"address":"Address 106","city":"Amsterdam","information":"Some information about POI 106","longitude":8.9876003265380859,"country":"The Netherlands","category":{"name":"Category 1"},"latitude":10.12339973449707,"identifier":"A562152E-2076-4CB3-9074-AEDE40CB458F","name":"POI 106"},{"address":"Address 107","city":"Amsterdam","information":"Some information about POI 107","longitude":8.9876003265380859,"country":"The Netherlands","category":{"name":"Category 2"},"latitude":10.12339973449707,"identifier":"128A6C77-D5E5-47D4-99E4-C629DD1065E1","name":"POI 107"},{"address":"Address 108","city":"Amsterdam","information":"Some information about POI 108","longitude":8.9876003265380859,"country":"The Netherlands","category":{"name":"Category 3"},"latitude":10.12339973449707,"identifier":"BEBCDC9E-4E70-4604-8854-44B221A95DDC","name":"POI 108"},{"address":"Address 109","city":"Amsterdam","information":"Some information about POI 109","longitude":8.9876003265380859,"country":"The Netherlands","category":{"name":"Category 4"},"latitude":10.12339973449707,"identifier":"394E89D4-D974-451C-AA9F-2E26F79639D4","name":"POI 109"},{"address":"Address 110","city":"Amsterdam","information":"Some information about POI 110","longitude":8.9876003265380859,"country":"The Netherlands","category":{"name":"Category 0"},"latitude":10.12339973449707,"identifier":"09F85CE6-55D0-4E3B-B089-2001B623056A","name":"POI 110"},{"address":"Address 111","city":"Amsterdam","information":"Some information about POI 111","longitude":8.9876003265380859,"country":"The Netherlands","category":{"name":"Category 1"},"latitude":10.12339973449707,"identifier":"EC8010A9-C11F-4346-AEAB-497DD59E12C4","name":"POI 111"},{"address":"Address 112","city":"Amsterdam","information":"Some information about POI 112","longitude":8.9876003265380859,"country":"The Netherlands","category":{"name":"Category 2"},"latitude":10.12339973449707,"identifier":"B3653193-726E-4D92-BFF4-84CA5E2B6EF8","name":"POI 112"},{"address":"Address 113","city":"Amsterdam","information":"Some information about POI 113","longitude":8.9876003265380859,"country":"The Netherlands","category":{"name":"Category 3"},"latitude":10.12339973449707,"identifier":"58D5CE51-DF01-489D-BEAE-40AF49781507","name":"POI 113"},{"address":"Address 114","city":"Amsterdam","information":"Some information about POI 114","longitude":8.9876003265380859,"country":"The Netherlands","category":{"name":"Category 4"},"latitude":10.12339973449707,"identifier":"472302C1-27BE-4F29-A85D-A697DE031A74","name":"POI 114"},{"address":"Address 115","city":"Amsterdam","information":"Some information about POI 115","longitude":8.9876003265380859,"country":"The Netherlands","category":{"name":"Category 0"},"latitude":10.12339973449707,"identifier":"803C1A0F-0EEF-4A14-8DB9-CF3804872FE8","name":"POI 115"},{"address":"Address 116","city":"Amsterdam","information":"Some information about POI 116","longitude":8.9876003265380859,"country":"The Netherlands","category":{"name":"Category 1"},"latitude":10.12339973449707,"identifier":"E4C77801-64EB-4837-AB81-4414E6D280D3","name":"POI 116"},{"address":"Address 117","city":"Amsterdam","information":"Some information about POI 117","longitude":8.9876003265380859,"country":"The Netherlands","category":{"name":"Category 2"},"latitude":10.12339973449707,"identifier":"F179A859-C880-4184-AEC2-228E5EABE298","name":"POI 117"},{"address":"Address 118","city":"Amsterdam","information":"Some information about POI 118","longitude":8.9876003265380859,"country":"The Netherlands","category":{"name":"Category 3"},"latitude":10.12339973449707,"identifier":"DB5D0601-32DC-4E4B-AC6C-3754EC67D7A6","name":"POI 118"},{"address":"Address 119","city":"Amsterdam","information":"Some information about POI 119","longitude":8.9876003265380859,"country":"The Netherlands","category":{"name":"Category 4"},"latitude":10.12339973449707,"identifier":"A19F5C73-15C5-4EEA-BFC2-B826DC1983E0","name":"POI 119"},{"address":"Address 120","city":"Amsterdam","information":"Some information about POI 120","longitude":8.9876003265380859,"country":"The Netherlands","category":{"name":"Category 0"},"latitude":10.12339973449707,"identifier":"6E844595-DEE0-4809-ADFB-EF474A0FF7F4","name":"POI 120"},{"address":"Address 121","city":"Amsterdam","information":"Some information about POI 121","longitude":8.9876003265380859,"country":"The Netherlands","category":{"name":"Category 1"},"latitude":10.12339973449707,"identifier":"0C3AF781-FF57-43F7-BC98-18D60215F888","name":"POI 121"},{"address":"Address 122","city":"Amsterdam","information":"Some information about POI 122","longitude":8.9876003265380859,"country":"The Netherlands","category":{"name":"Category 2"},"latitude":10.12339973449707,"identifier":"881290F5-919F-441F-A36B-537B4750B483","name":"POI 122"},{"address":"Address 123","city":"Amsterdam","information":"Some information about POI 123","longitude":8.9876003265380859,"country":"The Netherlands","category":{"name":"Category 3"},"latitude":10.12339973449707,"identifier":"95095548-FE97-4DA1-8653-79DD1F66B162","name":"POI 123"},{"address":"Address 124","city":"Amsterdam","information":"Some information about POI 124","longitude":8.9876003265380859,"country":"The Netherlands","category":{"name":"Category 4"},"latitude":10.12339973449707,"identifier":"A242449A-D8C9-4ACF-93E4-88CE20E3DA02","name":"POI 124"},{"address":"Address 125","city":"Amsterdam","information":"Some information about POI 125","longitude":8.9876003265380859,"country":"The Netherlands","category":{"name":"Category 0"},"latitude":10.12339973449707,"identifier":"97E750EC-1B46-49CD-9370-0BDAF9A681D2","name":"POI 125"},{"address":"Address 126","city":"Amsterdam","information":"Some information about POI 126","longitude":8.9876003265380859,"country":"The Netherlands","category":{"name":"Category 1"},"latitude":10.12339973449707,"identifier":"8461D65A-09D5-49D4-BC1E-B03391E34A5B","name":"POI 126"},{"address":"Address 127","city":"Amsterdam","information":"Some information about POI 127","longitude":8.9876003265380859,"country":"The Netherlands","category":{"name":"Category 2"},"latitude":10.12339973449707,"identifier":"87265D6F-0B5E-4574-8B1A-5D474DD21E41","name":"POI 127"},{"address":"Address 128","city":"Amsterdam","information":"Some information about POI 128","longitude":8.9876003265380859,"country":"The Netherlands","category":{"name":"Category 3"},"latitude":10.12339973449707,"identifier":"F4D3E3A9-3624-46DF-AC16-18B9B31C5DBD","name":"POI 128"},{"address":"Address 129","city":"Amsterdam","information":"Some information about POI 129","longitude":8.9876003265380859,"country":"The Netherlands","category":{"name":"Category 4"},"latitude":10.12339973449707,"identifier":"EB362F71-CCF4-4B5E-B5C1-BF0618EFED7E","name":"POI 129"},{"address":"Address 130","city":"Amsterdam","information":"Some information about POI 130","longitude":8.9876003265380859,"country":"The Netherlands","category":{"name":"Category 0"},"latitude":10.12339973449707,"identifier":"CF451CE9-FD83-4DA2-A6C9-D3A6CAF29C71","name":"POI 130"},{"address":"Address 131","city":"Amsterdam","information":"Some information about POI 131","longitude":8.9876003265380859,"country":"The Netherlands","category":{"name":"Category 1"},"latitude":10.12339973449707,"identifier":"1EA1FEC0-7F98-4E50-B982-66A7A79CB141","name":"POI 131"},{"address":"Address 132","city":"Amsterdam","information":"Some information about POI 132","longitude":8.9876003265380859,"country":"The Netherlands","category":{"name":"Category 2"},"latitude":10.12339973449707,"identifier":"096172F4-5BEF-45DF-A052-82DB0D5B81BA","name":"POI 132"},{"address":"Address 133","city":"Amsterdam","information":"Some information about POI 133","longitude":8.9876003265380859,"country":"The Netherlands","category":{"name":"Category 3"},"latitude":10.12339973449707,"identifier":"65D6BD10-2E65-4DB8-BD29-3344D3AC3952","name":"POI 133"},{"address":"Address 134","city":"Amsterdam","information":"Some information about POI 134","longitude":8.9876003265380859,"country":"The Netherlands","category":{"name":"Category 4"},"latitude":10.12339973449707,"identifier":"11D4740D-A13B-40A4-84A9-8367BB97BE2C","name":"POI 134"},{"address":"Address 135","city":"Amsterdam","information":"Some information about POI 135","longitude":8.9876003265380859,"country":"The Netherlands","category":{"name":"Category 0"},"latitude":10.12339973449707,"identifier":"083B4592-67AF-4851-B1A0-42853C84A1F5","name":"POI 135"},{"address":"Address 136","city":"Amsterdam","information":"Some information about POI 136","longitude":8.9876003265380859,"country":"The Netherlands","category":{"name":"Category 1"},"latitude":10.12339973449707,"identifier":"51978B1E-EBC3-4BC1-B26C-7BDCD339F000","name":"POI 136"},{"address":"Address 137","city":"Amsterdam","information":"Some information about POI 137","longitude":8.9876003265380859,"country":"The Netherlands","category":{"name":"Category 2"},"latitude":10.12339973449707,"identifier":"4E7A02AA-4DCD-4616-82F8-8F1BD57ACB0A","name":"POI 137"},{"address":"Address 138","city":"Amsterdam","information":"Some information about POI 138","longitude":8.9876003265380859,"country":"The Netherlands","category":{"name":"Category 3"},"latitude":10.12339973449707,"identifier":"E6E0085C-9F86-436C-9450-50F865C60B36","name":"POI 138"},{"address":"Address 139","city":"Amsterdam","information":"Some information about POI 139","longitude":8.9876003265380859,"country":"The Netherlands","category":{"name":"Category 4"},"latitude":10.12339973449707,"identifier":"D5068F22-9B73-41E9-96F2-6A6311AF9FE3","name":"POI 139"},{"address":"Address 140","city":"Amsterdam","information":"Some information about POI 140","longitude":8.9876003265380859,"country":"The Netherlands","category":{"name":"Category 0"},"latitude":10.12339973449707,"identifier":"BED6B10E-58DD-4E40-8D10-1567259B4D0C","name":"POI 140"},{"address":"Address 141","city":"Amsterdam","information":"Some information about POI 141","longitude":8.9876003265380859,"country":"The Netherlands","category":{"name":"Category 1"},"latitude":10.12339973449707,"identifier":"C74E148A-A132-41EA-973F-45B47B400BD7","name":"POI 141"},{"address":"Address 142","city":"Amsterdam","information":"Some information about POI 142","longitude":8.9876003265380859,"country":"The Netherlands","category":{"name":"Category 2"},"latitude":10.12339973449707,"identifier":"4A612DF7-B389-46BD-8FD4-2BB7FE7BC9BE","name":"POI 142"},{"address":"Address 143","city":"Amsterdam","information":"Some information about POI 143","longitude":8.9876003265380859,"country":"The Netherlands","category":{"name":"Category 3"},"latitude":10.12339973449707,"identifier":"9EA460A4-9DC7-45BA-B99E-54EF0F396CF7","name":"POI 143"},{"address":"Address 144","city":"Amsterdam","information":"Some information about POI 144","longitude":8.9876003265380859,"country":"The Netherlands","category":{"name":"Category 4"},"latitude":10.12339973449707,"identifier":"38AA79D2-A61E-4A19-94E9-FD65C9947EC7","name":"POI 144"},{"address":"Address 145","city":"Amsterdam","information":"Some information about POI 145","longitude":8.9876003265380859,"country":"The Netherlands","category":{"name":"Category 0"},"latitude":10.12339973449707,"identifier":"028DA4D1-AF9E-435E-9AD8-CB2F750F3930","name":"POI 145"},{"address":"Address 146","city":"Amsterdam","information":"Some information about POI 146","longitude":8.9876003265380859,"country":"The Netherlands","category":{"name":"Category 1"},"latitude":10.12339973449707,"identifier":"C408FDD4-C468-4653-8083-0A977FCF5846","name":"POI 146"},{"address":"Address 147","city":"Amsterdam","information":"Some information about POI 147","longitude":8.9876003265380859,"country":"The Netherlands","category":{"name":"Category 2"},"latitude":10.12339973449707,"identifier":"20813909-2AC3-4514-8FBA-F07D0370EAE7","name":"POI 147"},{"address":"Address 148","city":"Amsterdam","information":"Some information about POI 148","longitude":8.9876003265380859,"country":"The Netherlands","category":{"name":"Category 3"},"latitude":10.12339973449707,"identifier":"458F1931-3B49-4795-BA30-92AA3F2BC4D1","name":"POI 148"},{"address":"Address 149","city":"Amsterdam","information":"Some information about POI 149","longitude":8.9876003265380859,"country":"The Netherlands","category":{"name":"Category 4"},"latitude":10.12339973449707,"identifier":"9D44FFD0-898C-41A0-96FE-7961441C8E66","name":"POI 149"},{"address":"Address 150","city":"Amsterdam","information":"Some information about POI 150","longitude":8.9876003265380859,"country":"The Netherlands","category":{"name":"Category 0"},"latitude":10.12339973449707,"identifier":"0306A6FC-F10E-478C-A847-D653A4B11A80","name":"POI 150"},{"address":"Address 151","city":"Amsterdam","information":"Some information about POI 151","longitude":8.9876003265380859,"country":"The Netherlands","category":{"name":"Category 1"},"latitude":10.12339973449707,"identifier":"E9D07F27-032D-48D2-AAEE-F66A1CC8C1BE","name":"POI 151"},{"address":"Address 152","city":"Amsterdam","information":"Some information about POI 152","longitude":8.9876003265380859,"country":"The Netherlands","category":{"name":"Category 2"},"latitude":10.12339973449707,"identifier":"E753DBFF-BBC8-4EC9-8A74-3302D610A0D3","name":"POI 152"},{"address":"Address 153","city":"Amsterdam","information":"Some information about POI 153","longitude":8.9876003265380859,"country":"The Netherlands","category":{"name":"Category 3"},"latitude":10.12339973449707,"identifier":"4DFBBAB7-10DE-4CD0-8E8E-77A04075F7B9","name":"POI 153"},{"address":"Address 154","city":"Amsterdam","information":"Some information about POI 154","longitude":8.9876003265380859,"country":"The Netherlands","category":{"name":"Category 4"},"latitude":10.12339973449707,"identifier":"1C2EF072-9140-464D-B431-C42C5962CBED","name":"POI 154"},{"address":"Address 155","city":"Amsterdam","information":"Some information about POI 155","longitude":8.9876003265380859,"country":"The Netherlands","category":{"name":"Category 0"},"latitude":10.12339973449707,"identifier":"0548B90D-2E70-4C96-AAFD-C9866BE835A9","name":"POI 155"},{"address":"Address 156","city":"Amsterdam","information":"Some information about POI 156","longitude":8.9876003265380859,"country":"The Netherlands","category":{"name":"Category 1"},"latitude":10.12339973449707,"identifier":"8E0D449A-66E5-402A-984D-1313B8EB9BB9","name":"POI 156"},{"address":"Address 157","city":"Amsterdam","information":"Some information about POI 157","longitude":8.9876003265380859,"country":"The Netherlands","category":{"name":"Category 2"},"latitude":10.12339973449707,"identifier":"15147ED4-706A-4D21-9442-FEF34D4CCD4D","name":"POI 157"},{"address":"Address 158","city":"Amsterdam","information":"Some information about POI 158","longitude":8.9876003265380859,"country":"The Netherlands","category":{"name":"Category 3"},"latitude":10.12339973449707,"identifier":"A53E87F1-E693-47EF-804A-E07400A89A6C","name":"POI 158"},{"address":"Address 159","city":"Amsterdam","information":"Some information about POI 159","longitude":8.9876003265380859,"country":"The Netherlands","category":{"name":"Category 4"},"latitude":10.12339973449707,"identifier":"1721D74A-4573-45E5-94F0-D0EB26771CC9","name":"POI 159"},{"address":"Address 160","city":"Amsterdam","information":"Some information about POI 160","longitude":8.9876003265380859,"country":"The Netherlands","category":{"name":"Category 0"},"latitude":10.12339973449707,"identifier":"B3306066-1EB0-4847-97FF-F3BAE1D34C7B","name":"POI 160"},{"address":"Address 161","city":"Amsterdam","information":"Some information about POI 161","longitude":8.9876003265380859,"country":"The Netherlands","category":{"name":"Category 1"},"latitude":10.12339973449707,"identifier":"52F1D918-E1D1-4AAA-AB8E-F1CE75CFB58B","name":"POI 161"},{"address":"Address 162","city":"Amsterdam","information":"Some information about POI 162","longitude":8.9876003265380859,"country":"The Netherlands","category":{"name":"Category 2"},"latitude":10.12339973449707,"identifier":"F23FC4CA-1985-43F4-A810-0F5EA25899A1","name":"POI 162"},{"address":"Address 163","city":"Amsterdam","information":"Some information about POI 163","longitude":8.9876003265380859,"country":"The Netherlands","category":{"name":"Category 3"},"latitude":10.12339973449707,"identifier":"4F5F9E17-F8E7-4F07-9275-8C0D775A7C11","name":"POI 163"},{"address":"Address 164","city":"Amsterdam","information":"Some information about POI 164","longitude":8.9876003265380859,"country":"The Netherlands","category":{"name":"Category 4"},"latitude":10.12339973449707,"identifier":"EB5F3944-1CAE-4C9D-A2DF-57150B2C93F2","name":"POI 164"},{"address":"Address 165","city":"Amsterdam","information":"Some information about POI 165","longitude":8.9876003265380859,"country":"The Netherlands","category":{"name":"Category 0"},"latitude":10.12339973449707,"identifier":"12C05E0B-9BD5-4A9A-B447-F056A461085C","name":"POI 165"},{"address":"Address 166","city":"Amsterdam","information":"Some information about POI 166","longitude":8.9876003265380859,"country":"The Netherlands","category":{"name":"Category 1"},"latitude":10.12339973449707,"identifier":"77CF982A-BAC6-4BE7-853A-22DDE7BBE620","name":"POI 166"},{"address":"Address 167","city":"Amsterdam","information":"Some information about POI 167","longitude":8.9876003265380859,"country":"The Netherlands","category":{"name":"Category 2"},"latitude":10.12339973449707,"identifier":"922A89D5-C7BE-4169-B5BE-7363341FF00F","name":"POI 167"},{"address":"Address 168","city":"Amsterdam","information":"Some information about POI 168","longitude":8.9876003265380859,"country":"The Netherlands","category":{"name":"Category 3"},"latitude":10.12339973449707,"identifier":"FE42D6B1-4C58-4C57-A7B7-5BB0710E83E7","name":"POI 168"},{"address":"Address 169","city":"Amsterdam","information":"Some information about POI 169","longitude":8.9876003265380859,"country":"The Netherlands","category":{"name":"Category 4"},"latitude":10.12339973449707,"identifier":"7ACA5525-3F42-45BD-A85A-B5762F0A7EC5","name":"POI 169"},{"address":"Address 170","city":"Amsterdam","information":"Some information about POI 170","longitude":8.9876003265380859,"country":"The Netherlands","category":{"name":"Category 0"},"latitude":10.12339973449707,"identifier":"8D1A00F6-C2D9-453F-83EC-0474FB35DF73","name":"POI 170"},{"address":"Address 171","city":"Amsterdam","information":"Some information about POI 171","longitude":8.9876003265380859,"country":"The Netherlands","category":{"name":"Category 1"},"latitude":10.12339973449707,"identifier":"0851DCFC-11EC-4134-8150-4116D5A402E0","name":"POI 171"},{"address":"Address 172","city":"Amsterdam","information":"Some information about POI 172","longitude":8.9876003265380859,"country":"The Netherlands","category":{"name":"Category 2"},"latitude":10.12339973449707,"identifier":"4C011524-C609-4F1A-B040-FB7382A52676","name":"POI 172"},{"address":"Address 173","city":"Amsterdam","information":"Some information about POI 173","longitude":8.9876003265380859,"country":"The Netherlands","category":{"name":"Category 3"},"latitude":10.12339973449707,"identifier":"DB923C5E-8C8C-4C9A-924E-50BB78C63412","name":"POI 173"},{"address":"Address 174","city":"Amsterdam","information":"Some information about POI 174","longitude":8.9876003265380859,"country":"The Netherlands","category":{"name":"Category 4"},"latitude":10.12339973449707,"identifier":"52DAB809-5640-4932-9E39-31710BE648F1","name":"POI 174"},{"address":"Address 175","city":"Amsterdam","information":"Some information about POI 175","longitude":8.9876003265380859,"country":"The Netherlands","category":{"name":"Category 0"},"latitude":10.12339973449707,"identifier":"27213169-67DA-4648-8EC6-19C65FD3C79F","name":"POI 175"},{"address":"Address 176","city":"Amsterdam","information":"Some information about POI 176","longitude":8.9876003265380859,"country":"The Netherlands","category":{"name":"Category 1"},"latitude":10.12339973449707,"identifier":"83C86C37-6328-42F3-8259-46D38620F5B4","name":"POI 176"},{"address":"Address 177","city":"Amsterdam","information":"Some information about POI 177","longitude":8.9876003265380859,"country":"The Netherlands","category":{"name":"Category 2"},"latitude":10.12339973449707,"identifier":"B9788CC6-854A-4445-9DEE-889022D7F810","name":"POI 177"},{"address":"Address 178","city":"Amsterdam","information":"Some information about POI 178","longitude":8.9876003265380859,"country":"The Netherlands","category":{"name":"Category 3"},"latitude":10.12339973449707,"identifier":"7AEC616F-1706-43FA-A5C2-1C2FCB419C26","name":"POI 178"},{"address":"Address 179","city":"Amsterdam","information":"Some information about POI 179","longitude":8.9876003265380859,"country":"The Netherlands","category":{"name":"Category 4"},"latitude":10.12339973449707,"identifier":"855EBC4E-B8DD-47AE-B700-2FAEEB008774","name":"POI 179"},{"address":"Address 180","city":"Amsterdam","information":"Some information about POI 180","longitude":8.9876003265380859,"country":"The Netherlands","category":{"name":"Category 0"},"latitude":10.12339973449707,"identifier":"ECE5DA32-E915-4CC0-9930-3F32808F5C8D","name":"POI 180"},{"address":"Address 181","city":"Amsterdam","information":"Some information about POI 181","longitude":8.9876003265380859,"country":"The Netherlands","category":{"name":"Category 1"},"latitude":10.12339973449707,"identifier":"7D3EEA45-2D24-4858-A1AD-1B4C6D528429","name":"POI 181"},{"address":"Address 182","city":"Amsterdam","information":"Some information about POI 182","longitude":8.9876003265380859,"country":"The Netherlands","category":{"name":"Category 2"},"latitude":10.12339973449707,"identifier":"C516F9D0-7E3A-48A1-BD22-98206B33248A","name":"POI 182"},{"address":"Address 183","city":"Amsterdam","information":"Some information about POI 183","longitude":8.9876003265380859,"country":"The Netherlands","category":{"name":"Category 3"},"latitude":10.12339973449707,"identifier":"F4C7FE5C-4F82-44B3-807D-05677E929871","name":"POI 183"},{"address":"Address 184","city":"Amsterdam","information":"Some information about POI 184","longitude":8.9876003265380859,"country":"The Netherlands","category":{"name":"Category 4"},"latitude":10.12339973449707,"identifier":"53AE2C98-2D5C-45D3-9B73-0EA5400D6BBB","name":"POI 184"},{"address":"Address 185","city":"Amsterdam","information":"Some information about POI 185","longitude":8.9876003265380859,"country":"The Netherlands","category":{"name":"Category 0"},"latitude":10.12339973449707,"identifier":"2CE7ECD0-7356-4AC4-80B9-AF6866D4662B","name":"POI 185"},{"address":"Address 186","city":"Amsterdam","information":"Some information about POI 186","longitude":8.9876003265380859,"country":"The Netherlands","category":{"name":"Category 1"},"latitude":10.12339973449707,"identifier":"4365DD43-B3E1-4B94-AC01-8C7D106367BD","name":"POI 186"},{"address":"Address 187","city":"Amsterdam","information":"Some information about POI 187","longitude":8.9876003265380859,"country":"The Netherlands","category":{"name":"Category 2"},"latitude":10.12339973449707,"identifier":"D75F2121-292D-435D-B1BA-7130C3DC8DB5","name":"POI 187"},{"address":"Address 188","city":"Amsterdam","information":"Some information about POI 188","longitude":8.9876003265380859,"country":"The Netherlands","category":{"name":"Category 3"},"latitude":10.12339973449707,"identifier":"D841AA6F-95F1-438F-82A3-7E2008583E5B","name":"POI 188"},{"address":"Address 189","city":"Amsterdam","information":"Some information about POI 189","longitude":8.9876003265380859,"country":"The Netherlands","category":{"name":"Category 4"},"latitude":10.12339973449707,"identifier":"C683F8A5-3DEA-4B34-9B59-03DD0BAEDF71","name":"POI 189"},{"address":"Address 190","city":"Amsterdam","information":"Some information about POI 190","longitude":8.9876003265380859,"country":"The Netherlands","category":{"name":"Category 0"},"latitude":10.12339973449707,"identifier":"AC2A96A0-71B2-4B5D-898C-278CDE577491","name":"POI 190"},{"address":"Address 191","city":"Amsterdam","information":"Some information about POI 191","longitude":8.9876003265380859,"country":"The Netherlands","category":{"name":"Category 1"},"latitude":10.12339973449707,"identifier":"33244485-2EB3-44D9-B42C-854130550C60","name":"POI 191"},{"address":"Address 192","city":"Amsterdam","information":"Some information about POI 192","longitude":8.9876003265380859,"country":"The Netherlands","category":{"name":"Category 2"},"latitude":10.12339973449707,"identifier":"89D68E78-02E9-4871-88DE-B32126B9D9B1","name":"POI 192"},{"address":"Address 193","city":"Amsterdam","information":"Some information about POI 193","longitude":8.9876003265380859,"country":"The Netherlands","category":{"name":"Category 3"},"latitude":10.12339973449707,"identifier":"7B04F248-7DE3-4EFD-B9DA-E87CB85A7336","name":"POI 193"},{"address":"Address 194","city":"Amsterdam","information":"Some information about POI 194","longitude":8.9876003265380859,"country":"The Netherlands","category":{"name":"Category 4"},"latitude":10.12339973449707,"identifier":"C94C9E3F-90B4-41CD-85C3-97E1F84FD6CA","name":"POI 194"},{"address":"Address 195","city":"Amsterdam","information":"Some information about POI 195","longitude":8.9876003265380859,"country":"The Netherlands","category":{"name":"Category 0"},"latitude":10.12339973449707,"identifier":"F6B7CB9D-7C3C-4D8C-B561-D766851C2DC1","name":"POI 195"},{"address":"Address 196","city":"Amsterdam","information":"Some information about POI 196","longitude":8.9876003265380859,"country":"The Netherlands","category":{"name":"Category 1"},"latitude":10.12339973449707,"identifier":"1A6EB112-B834-447F-BF20-8710279ADD63","name":"POI 196"},{"address":"Address 197","city":"Amsterdam","information":"Some information about POI 197","longitude":8.9876003265380859,"country":"The Netherlands","category":{"name":"Category 2"},"latitude":10.12339973449707,"identifier":"805C61B5-D509-4B5D-BA98-923A5B923104","name":"POI 197"},{"address":"Address 198","city":"Amsterdam","information":"Some information about POI 198","longitude":8.9876003265380859,"country":"The Netherlands","category":{"name":"Category 3"},"latitude":10.12339973449707,"identifier":"35AA6C27-373D-4984-86CF-A307C5CB97F3","name":"POI 198"},{"address":"Address 199","city":"Amsterdam","information":"Some information about POI 199","longitude":8.9876003265380859,"country":"The Netherlands","category":{"name":"Category 4"},"latitude":10.12339973449707,"identifier":"D6C50456-1CB9-4561-B1D7-AF9D5338AD0C","name":"POI 199"}]
